{"type":"FeatureCollection","features":[{"type":"Feature","properties":{"Name":"Austin Animal Center","Address":"7201 Levander Loop Austin, TX 78702"},"geometry":{"type":"Point","coordinates":[-97.690381,30.253058]}},{"type":"Feature","properties":{"Name":"Austin Pets Alive Tarrytown Adoption Center","Address":"3108 Windsor Road Austin, TX 78703"},"geometry":{"type":"Point","coordinates":[-97.767639,30.296705]}},{"type":"Feature","properties":{"Name":"Austin Pets Alive!","Address":"1156 W Cesar Chavez Austin, TX 78703"},"geometry":{"type":"Point","coordinates":[-97.759136,30.27007]}},{"type":"Feature","properties":{"Name":"Austin Humane Society","Address":"124 W Anderson Ln Austin, TX 78752"},"geometry":{"type":"Point","coordinates":[-97.705204,30.344996]}},{"type":"Feature","properties":{"Name":"Gold Ribbon Rescue","Address":"807 Brazos Street Austin,TX"},"geometry":{"type":"Point","coordinates":[-97.740019,30.270219]}},{"type":"Feature","properties":{"Name":"Austin Wildlife Rescue","Address":"5401 E Martin Luther King Blvd Austin, TX 78721"},"geometry":{"type":"Point","coordinates":[-97.674422,30.285909]}},{"type":"Feature","properties":{"Name":"Pflugerville Animal Welfare Services","Address":"1600 Waterbrook Dr, Pflugerville, TX 78660"},"geometry":{"type":"Point","coordinates":[-97.606806,30.431035]}},{"type":"Feature","properties":{"Name":"Taurus Academy","Address":"12419 Metric Blvd, Austin, TX 78758"},"geometry":{"type":"Point","coordinates":[-97.693492,30.430077]}},{"type":"Feature","properties":{"Name":"Servicios Martinez","Address":"15635 Vision Dr, Pflugerville, TX 78660"},"geometry":{"type":"Point","coordinates":[-97.660826,30.466067]}},{"type":"Feature","properties":{"Name":"Lake Austin Blvd Animal Hospital","Address":"2301 Lake Austin Blvd, Austin, TX 78703"},"geometry":{"type":"Point","coordinates":[-97.771312,30.283505]}},{"type":"Feature","properties":{"Name":"PAWS Shelter of Central Texa","Address":"500 E Fm 150, Kyle, TX 78640"},"geometry":{"type":"Point","coordinates":[-97.87011,29.983255]}},{"type":"Feature","properties":{"Name":"Lockhart Animal Shelter","Address":"547 Old McMahan Trail, Lockhart TX 78644"},"geometry":{"type":"Point","coordinates":[-97.644691,29.869653]}}]}